충전소명,주소,Latitude,Longitude,ID,충전기 형태,충전기 용량,x,y
DTC섬유박물관,대구광역시 동구 팔공로 227DTC섬유박물관(봉무동 1560-1),35.9191994,128.6400249,1,DC차데모+AC3상+DC콤보,50kW,,
가창면 행정복지센터,대구광역시 달성군 가창면 가창로 1100가창면행정복지센터(82 가창면사무소),35.8025854,128.622956,1,AC완속,7kW,,
갓바위공영3주차장,대구광역시 동구 갓바위로 227갓바위공영3주차장(진인동 123-74 갓바위공영3주차장),35.9711345,128.7256503,1,AC완속,7kW,,
갓바위공영3주차장,대구광역시 동구 갓바위로 227갓바위공영3주차장(진인동 123-74 갓바위공영3주차장),35.9711345,128.7256503,2,AC완속,7kW,,
갓바위공영3주차장,대구광역시 동구 갓바위로 227갓바위공영3주차장(진인동 123-74 갓바위공영3주차장),35.9711345,128.7256503,3,AC완속,7kW,,
갓바위공영5주차장,대구광역시 동구 갓바위로 223-35갓바위공영5주차장(진인동 123-12 갓바위공영5주차장),35.9733218,128.7264895,1,DC차데모+AC3상+DC콤보,50kW,,
검단동 행정복지센터,대구광역시 북구 검단로41길 12검단동행정복지센터(검단동 행정복지센터),35.9133249,128.6273141,1,AC완속,7kW,,
고산3동 행정복지센터,대구광역시 수성구 고산로 152고산3동행정복지센터(고산3동 행정복지센터),35.8441077,128.7065744,1,AC완속,7kW,,
관음공영주차장,대구광역시 북구 관음중앙로 80관음공영주차장(관음동 448-1),35.9407641,128.5449677,1,DC차데모+AC3상+DC콤보,50kW,,
관음동 행정복지센터,대구광역시 북구 관음동로 125관음동행정복지센터(관음동 행정복지센터),35.9442294,128.5473327,1,AC완속,7kW,,
구암동 행정복지센터,대구광역시 북구 구암서로 32구암동 행정복지센터(구암동 788-1),35.9389053,128.5660447,1,DC차데모+AC3상+DC콤보,50kW,,
국채보상운동기념공원주차장,대구광역시 중구 국채보상로 670국채보상운동기념공원주차장(동인동2가 42),35.8689974,128.6017305,1,AC완속,7kW,,
국채보상운동기념공원주차장,대구광역시 중구 국채보상로 670국채보상운동기념공원주차장(동인동2가 42),35.8689974,128.6017305,2,AC완속,7kW,,
국채보상운동기념공원주차장,대구광역시 중구 국채보상로 670국채보상운동기념공원주차장(동인동2가 42),35.8689974,128.6017305,3,AC완속,7kW,,
남산4동 행정복지센터,대구광역시 중구 남산로1길 42남산4동행정복지센터(2508-1 남산4동주민센터),35.8582148,128.5805303,1,AC완속,7kW,,
내당23동 행정복지센터,"대구광역시 서구 큰장로15길 11-1내당23동행정복지센터(1008-1 내당2,3동주민센터)",35.8673443,128.5745766,1,AC완속,7kW,,
논공읍 논공공단출장소,대구광역시 달성군 논공읍 논공중앙로33길 3논공읍 논공공단출장소(북리 1-130),35.7300136,128.4528235,1,DC차데모+AC3상+DC콤보,50kW,,
논공읍 행정복지센터,"대구광역시 달성군 논공읍 비슬로 1779논공읍행정복지센터(1998 논공읍사무소,금포119지역대)",35.7742545,128.4201906,1,AC완속,7kW,,
농수산물도매시장,대구광역시 북구 매천로18길 34농수산물도매시장(매천동 527-3),35.9025772,128.5431863,1,DC차데모+AC3상+DC콤보,50kW,,
농수산물도매시장,대구광역시 북구 매천로18길 34농수산물도매시장(매천동 527-3),35.9025772,128.5431863,2,AC완속,7kW,,
농수산물도매시장,대구광역시 북구 매천로18길 34농수산물도매시장(매천동 527-3),35.9025772,128.5431863,3,AC완속,7kW,,
농수산물도매시장,대구광역시 북구 매천로18길 34농수산물도매시장(매천동 527-3),35.9025772,128.5431863,4,AC완속,7kW,,
다사읍 행정복지센터,대구광역시 달성군 다사읍 매곡로 7다사읍 행정복지센터(매곡리 885-1),35.8619037,128.4540961,1,DC차데모+AC3상+DC콤보,50kW,,
다사읍 행정복지센터(서재출장소),대구광역시 달성군 다사읍 서재본길 25다사읍행정복지센터(서재)(다사읍사무소 서재출장소),35.8619037,128.4540961,1,AC완속,7kW,,
다사체육공원 주차장,대구광역시 달성군 다사읍 다사로 441다사체육공원(달천리 137-2),35.8905147,128.4789835,1,DC차데모+AC3상+DC콤보,50kW,,
달서구청,대구광역시 달서구 학산로 45달서구청(월성동 281),35.8297339,128.5326441,1,DC차데모+AC3상+DC콤보,50kW,,
달성군농업기술센터,대구광역시 달성군 옥포읍 비슬로 2040달성군농업기술센터(교항리 2521-7),35.7824203,128.4467845,1,DC차데모+AC3상+DC콤보,50kW,,
달성군청,대구광역시 달성군 논공읍 달성군청로 33달성군청(금포리 1313),35.7745414,128.4313244,1,DC차데모+AC3상+DC콤보,50kW,,
달성군청,대구광역시 달성군 논공읍 달성군청로 33달성군청(금포리 1313),35.7745414,128.4313244,2,AC완속,7kW,,
달성문화센터,대구광역시 달성군 다사읍 대실역북로2길 188달성문화센터(매곡리 1515-3),35.865245,128.4607069,1,DC차데모+AC3상+DC콤보,50kW,,
대구과학관,대구광역시 달성군 유가읍 테크노대로6길 20대구과학관 주차장(상리 917),35.6888802,128.4637065,1,DC차데모+AC3상+DC콤보,50kW,,
대구과학관,대구광역시 달성군 유가읍 테크노대로6길 20대구과학관 주차장(상리 917),35.6888802,128.4637065,2,AC완속,7kW,,
대구과학관,대구광역시 달성군 유가읍 테크노대로6길 20대구과학관 주차장(상리 917),35.6888802,128.4637065,3,AC완속,7kW,,
대구과학관,대구광역시 달성군 유가읍 테크노대로6길 20대구과학관 주차장(상리 917),35.6888802,128.4637065,4,AC완속,7kW,,
대구도시철도공사,대구광역시 달서구 월배로 250대구도시철도공사(상인동 1500),35.8192863,128.5408989,1,DC차데모+AC3상+DC콤보,50kW,,
대구부광교회,대구광역시 북구 칠곡중앙대로52길 38대구부광교회(태전동 608-12),35.9218148,128.5495474,1,DC차데모+AC3상+DC콤보,50kW,,
대구사격장,대구광역시 북구 문주길 170대구사격장(40 대구사격장),35.9112683,128.524302,1,DC차데모+AC3상+DC콤보,50kW,,
대구시청,대구광역시 중구 공평로 88대구시청 주차장(동인동1가 2-1),35.871479,128.601482,1,DC차데모+AC3상+DC콤보,50kW,,
대구시청,대구광역시 중구 공평로 88대구시청 주차장(동인동1가 2-1),35.871479,128.601482,2,AC완속,7kW,,
대구은행 본리동지점,대구광역시 달서구 구마로 180대구은행 본리동지점(본동 225-3),35.8369747,128.5474158,1,DC차데모+AC3상+DC콤보,50kW,,
대구은행 시지지점,대구광역시 수성구 달구벌대로 3196대구은행 시지지점(신매동 567-10),35.8402193,128.7062412,1,DC차데모+AC3상+DC콤보,50kW,,
대구은행 제2본점,대구광역시 북구 옥산로 111대구은행 제2본점(칠성동2가 2-4 대구은행 제2본점),35.8841889,128.5885533,1,DC차데모+AC3상+DC콤보,50kW,,
대구은행 파동지점,대구광역시 수성구 수성로5 (입구 좌측),35.8261163,128.6100013,1,DC차데모+AC3상+DC콤보,50kW,,
대구의료원,대구광역시 서구 평리로 157대구의료원(1162 대구의료원),35.859603,128.540617,1,DC차데모+AC3상+DC콤보,50kW,,
대구지식서비스센터,대구광역시 동구 동대구로 481대구지식서비스센터(신천동 92),35.8731756,128.6248576,1,AC완속,7kW,,
대구지식서비스센터,대구광역시 동구 동대구로 481대구지식서비스센터(신천동 92),35.8731756,128.6248576,2,AC완속,7kW,,
대구체육관 주차장,대구광역시 북구 대구체육관로 39대구체육관 주차장(산격동 1427-1),35.8937914,128.6034045,1,DC차데모+AC3상+DC콤보,50kW,,
대구환경공단(달서천),대구광역시 서구 염색공단로 130대구환경공단(달서천)(비산동 3016),35.8846587,128.5375558,1,DC차데모+AC3상+DC콤보,50kW,,
대구환경공단(달서천),대구광역시 서구 염색공단로 130대구환경공단(달서천)(비산동 3016),35.8846587,128.5375558,2,AC완속,7kW,,
대구환경공단(본부),대구광역시 달서구 달서대로 210대구환경공단(본부)(대천동 770),35.8233091,128.4959538,1,DC차데모+AC3상+DC콤보,50kW,,
대구환경공단(본부),대구광역시 달서구 달서대로 210대구환경공단(본부)(대천동 770),35.8233091,128.4959538,2,AC완속,7kW,,
대구환경공단(지산),대구광역시 수성구 무학로 112대구환경공단(지산)(두산동 499-4),35.829282,128.6207449,1,DC차데모+AC3상+DC콤보,50kW,,
대덕승마장,대구광역시 달서구 앞산순환로 206대덕승마장(송현동 694),35.821512,128.5544752,1,DC차데모+AC3상+DC콤보,50kW,,
대명5동 행정복지센터,대구광역시 남구 대명로58길 11대명5동 행정복지센터(대명동 150 대명5동 행정복지센터),35.8432073,128.5878348,1,DC차데모+AC3상+DC콤보,50kW,,
대명9동행정복지센터,대구광역시 남구 큰골길 53대명9동행정복지센터(2680-7 대명9동주민센터),35.8372729,128.5791977,1,AC완속,7kW,,
도원동 행정복지센터,대구광역시 달서구 한실로 53도원동행정복지센터(1429-5 도원동행정복지센터),35.8074674,128.5323803,1,AC완속,7kW,,
동구청,대구광역시 동구 아양로 207동구청(신암동 36-1),35.8866013,128.6355799,1,DC차데모+AC3상+DC콤보,50kW,,
동구청,대구광역시 동구 아양로 207동구청(신암동 36-1),35.8866013,128.6355799,2,AC완속,7kW,,
동대구복합환승센터,대구광역시 동구 동부로 149동대구복합환승센터 주차장,35.8778436,128.6289975,1,DC차데모+AC3상+DC콤보,50kW,,
동대구복합환승센터,대구광역시 동구 동부로 149동대구복합환승센터 주차장,35.8778436,128.6289975,2,AC완속,7kW,,
동대구복합환승센터,대구광역시 동구 동부로 149동대구복합환승센터 주차장,35.8778436,128.6289975,3,AC완속,7kW,,
동대구복합환승센터,대구광역시 동구 동부로 149동대구복합환승센터 주차장,35.8778436,128.6289975,4,AC완속,7kW,,
동림플라자,대구광역시 북구 한강로8길 20동림플라자(금호동 802),35.8954753,128.517558,1,DC차데모+AC3상+DC콤보,100kW,,
동인동 행정복지센터,대구광역시 중구 국채보상로142길 19-5동인동행정복지센터(318-5 동인동주민센터),35.8678809,128.6091385,1,AC완속,7kW,,
동천동 행정복지센터,대구광역시 북구 대천로 81동천동행정복지센터(동천동 행정복지센터),35.9372328,128.5581691,1,AC완속,7kW,,
동촌유원지 입구 주차장,대구광역시 동구 효동로 1동촌유원지 입구 주차장(효목동 202-27),35.8785641,128.6491004,1,DC차데모+AC3상+DC콤보,50kW,,
두류12동 행정복지센터,"대구광역시 달서구 성당로51길 32두류1,2동행정복지센터(841-6 두류1,2동행정복지센터)",35.8543263,128.57367,1,AC완속,7kW,,
두류공원,대구광역시 달서구 공원순환로 216두류공원(성당동 195-1),35.8472435,128.5577828,1,AC완속,7kW,,
두류공원,대구광역시 달서구 공원순환로 216두류공원(성당동 195-1),35.8472435,128.5577828,2,AC완속,7kW,,
두류공원,대구광역시 달서구 공원순환로 216두류공원(성당동 195-1),35.8472435,128.5577828,3,AC완속,7kW,,
두류공원,대구광역시 달서구 공원순환로 216두류공원(성당동 195-1),35.8472435,128.5577828,4,AC완속,7kW,,
두산오거리,대구광역시 수성구 지범로 15두산오거리 도로변(두산동 954-10),35.8290173,128.6245857,1,AC완속,7kW,,
두산오거리,대구광역시 수성구 지범로 15두산오거리 도로변(두산동 954-10),35.8290173,128.6245857,2,AC완속,7kW,,
두산오거리,대구광역시 수성구 지범로 15두산오거리 도로변(두산동 954-10),35.8290173,128.6245857,3,AC완속,7kW,,
두산오거리,대구광역시 수성구 지범로 15두산오거리 도로변(두산동 954-10),35.8290173,128.6245857,4,AC완속,7kW,,
만촌2동 행정복지센터,대구광역시 수성구 무열로 12만촌2동행정복지센터(만촌2동 행정복지센터),35.860134,128.647277,1,AC완속,7kW,,
만촌3동 행정복지센터,대구광역시 수성구 교학로2길 45만촌3동행정복지센터(만촌3동 행정복지센터),35.855522,128.6506349,1,AC완속,7kW,,
매천역환승공영주차장,대구광역시 북구 학정로 6매천역환승공영주차장(669 매천역),35.9090861,128.5458209,1,AC완속,7kW,,
매천역환승공영주차장,대구광역시 북구 학정로 6매천역환승공영주차장(669 매천역),35.9090861,128.5458209,2,AC완속,7kW,,
명복공원 주차장,대구광역시 수성구 달구벌대로541길 47명복공원 주차장(고모동 산113-3),35.8578016,128.6592907,1,DC차데모+AC3상+DC콤보,50kW,,
문양역 야외주차장,대구광역시 달성군 다사읍 문양역길 71문양역 야외주차장(문양리 400),35.8647724,128.4360905,1,DC차데모+AC3상+DC콤보,50kW,,
반야월공영주차장,대구광역시 동구 율하동로 143반야월공영주차장(174-1 동부프라자),35.8631571,128.702498,1,DC차데모+AC3상+DC콤보,50kW,,
복현2동 행정복지센터,대구광역시 북구 복현로8길 16-5복현2동행정복지센터(복현2동 행정복지센터),35.895354,128.6254941,1,AC완속,7kW,,
복현장미공원,대구광역시 북구 경진로남1길 40복현장미공원(복현동 439-1),35.8933647,128.6173246,1,DC차데모+AC3상+DC콤보,50kW,,
본동 행정복지센터,대구광역시 달서구 구마로26길 62본동행정복지센터(867-3 본동행정복지센터),35.8344453,128.5410812,1,AC완속,7kW,,
봉덕2동 행정복지센터,대구광역시 남구 이천로10길 50봉덕2동행정복지센터(540-1 봉덕2동주민센터),35.8438374,128.6011308,1,AC완속,7kW,,
북구청,대구광역시 북구 옥산로 65북구청(침산동 447-16),35.885656,128.582946,1,DC차데모+AC3상+DC콤보,50kW,,
북구청,대구광역시 북구 옥산로 65북구청(침산동 447-16),35.885656,128.582946,2,AC완속,7kW,,
불로봉무동 행정복지센터,대구광역시 동구 팔공로25길 16불로봉무동행정복지센터(434 불로봉무동행정복지센터),35.9102375,128.6393011,1,AC완속,7kW,,
비산1동 행정복지센터,대구광역시 서구 북비산로65길 18비산1동행정복지센터(비산1동 주민센터),35.8811841,128.5689752,1,AC완속,7kW,,
비산4동 행정복지센터,대구광역시 서구 국채보상로78길 29-4비산4동행정복지센터(비산4동 주민센터),35.8697689,128.5742806,1,AC완속,7kW,,
비슬산자연휴양림공영주차장,대구광역시 달성군 유가읍 일연선사길 99비슬산자연휴양림공영주차장(용리 산10),35.6940873,128.5052268,1,DC차데모+AC3상+DC콤보,50kW,,
산격2동 행정복지센터,대구광역시 북구 동북로31길 30산격2동행정복지센터(산격2동 행정복지센터),35.9017379,128.6092486,1,AC완속,7kW,,
상공회의소,대구광역시 동구 동대구로 457상공회의소(신천동 107-2),35.8709959,128.6249646,1,DC차데모+AC3상+DC콤보,50kW,,
상동 행정복지센터,대구광역시 수성구 들안로9길 56상동행정복지센터(상동 행정복지센터),35.8321075,128.6154166,1,AC완속,7kW,,
상인1동 행정복지센터,대구광역시 달서구 상인서로 40상인1동행정복지센터(1528 상인1동행정복지센터),35.8142773,128.5450464,1,AC완속,7kW,,
상인2동 행정복지센터,대구광역시 달서구 상원로 27상인2동행정복지센터(1453-7 상인2동행정복지센터),35.812525,128.5362024,1,AC완속,7kW,,
상중이동 행정복지센터,대구광역시 서구 당산로 343상중이동 행정복지센터(중리동 1085-3),35.8666551,128.5462243,1,DC차데모+AC3상+DC콤보,50kW,,
서구국민체육센터,대구광역시 서구 문화로 72서구국민체육센터(315-15 서구국민체육센터),35.8734345,128.5408947,1,DC차데모+AC3상+DC콤보,50kW,,
서구국민체육센터,대구광역시 서구 문화로 72서구국민체육센터(315-15 서구국민체육센터),35.8734345,128.5408947,2,DC차데모+AC3상+DC콤보,100kW,,
서구청,대구광역시 서구 국채보상로 257서구청(1230-9 서구청),35.8718022,128.5592204,1,DC차데모+AC3상+DC콤보,50kW,,
서대구산업단지 근로자복지회관,대구광역시 서구 국채보상로 124서대구산업단지 근로자복지회관(중리동 1082-8),35.8684904,128.5447295,1,DC차데모+AC3상+DC콤보,50kW,,
서문주차빌딩(지상2층),대구광역시 중구 큰장로26길 45서문주차빌딩(지상2층)(대신동 115-378 서문주차빌딩(지상2층)),35.868908,128.5807522,1,DC차데모+AC3상+DC콤보,50kW,,
서문주차빌딩(지상2층),대구광역시 중구 큰장로26길 45서문주차빌딩(지상2층)(대신동 115-378 서문주차빌딩(지상2층)),35.868908,128.5807522,2,AC완속,7kW,,
서문주차빌딩(지상2층),대구광역시 중구 큰장로26길 45서문주차빌딩(지상2층)(대신동 115-378 서문주차빌딩(지상2층)),35.868908,128.5807522,3,AC완속,7kW,,
서문주차빌딩(지상2층),대구광역시 중구 큰장로26길 45서문주차빌딩(지상2층)(대신동 115-378 서문주차빌딩(지상2층)),35.868908,128.5807522,4,AC완속,7kW,,
서부법원 앞,대구광역시 달서구 장산남로 30서부법원 앞(용산동 230),35.8530184,128.5274666,1,AC완속,7kW,,
서부법원 앞,대구광역시 달서구 장산남로 30서부법원 앞(용산동 230),35.8530184,128.5274666,2,AC완속,7kW,,
서부법원 앞,대구광역시 달서구 장산남로 30서부법원 앞(용산동 230),35.8530184,128.5274666,3,AC완속,7kW,,
서부법원 앞,대구광역시 달서구 장산남로 30서부법원 앞(용산동 230),35.8530184,128.5274666,4,AC완속,7kW,,
성당동 행정복지센터,대구광역시 달서구 야외음악당로 38성당동행정복지센터(434-3 성당동행정복지센터),35.8405314,128.5529837,1,AC완속,7kW,,
성서체육공원주차장,대구광역시 달서구 성서공단로22길 25성서체육공원주차장(월암동 1-18),35.8326608,128.4966501,1,AC완속,7kW,,
성서체육공원주차장,대구광역시 달서구 성서공단로22길 25성서체육공원주차장(월암동 1-18),35.8326608,128.4966501,2,AC완속,7kW,,
성서체육공원주차장,대구광역시 달서구 성서공단로22길 25성서체육공원주차장(월암동 1-18),35.8326608,128.4966501,3,AC완속,7kW,,
성서체육공원주차장,대구광역시 달서구 성서공단로22길 25성서체육공원주차장(월암동 1-18),35.8326608,128.4966501,4,AC완속,7kW,,
성서홈플러스,대구광역시 달서구 달구벌대로 1467성서홈플러스 지하주차장(용산동 230-11),35.8494607,128.5274266,1,DC차데모+AC3상+DC콤보,50kW,,
성서홈플러스,대구광역시 달서구 달구벌대로 1467성서홈플러스 지하주차장(용산동 230-11),35.8494607,128.5274266,2,AC완속,7kW,,
송현1동 행정복지센터,대구광역시 달서구 중흥로8길 41송현1동행정복지센터(1995 송현1동행정복지센터),35.8292456,128.5546169,1,AC완속,7kW,,
송현1동2공영주차장,대구광역시 달서구 월배로74길 93-14(송현동 1971-2),35.8257454,128.5540218,1,AC완속,7kW,,
수성구청,대구광역시 수성구 달구벌대로 2450수성구청(범어동 238-3),35.8583599,128.6305558,1,DC차데모+AC3상+DC콤보,50kW,,
수성구청,대구광역시 수성구 달구벌대로 2450수성구청(범어동 238-3),35.8583599,128.6305558,2,AC완속,7kW,,
수성대학교 입구 우,대구광역시 수성구 달구벌대로528길 15수성대학교 입구 우측(만촌동 1078),,,1,AC완속,7kW,,
수성대학교 입구 우,대구광역시 수성구 달구벌대로528길 15수성대학교 입구 우측(만촌동 1078),,,2,AC완속,7kW,,
수성대학교 입구 좌,대구광역시 수성구 달구벌대로528길 15수성대학교 입구 좌측(만촌동 1078),,,1,AC완속,7kW,,
수성대학교 입구 좌,대구광역시 수성구 달구벌대로528길 15수성대학교 입구 좌측(만촌동 1078),,,2,AC완속,7kW,,
수성아트피아,대구광역시 수성구 무학로 180수성아트피아(1137-3 수성아트피아),,,1,DC차데모+AC3상+DC콤보,100kW,,
시설안전관리사업소,대구광역시 달서구 성서공단로 58시설안전관리사업소(대천동 891),35.8336113,128.4893014,1,DC차데모+AC3상+DC콤보,50kW,,
시설안전관리사업소,대구광역시 달서구 성서공단로 58시설안전관리사업소(대천동 891),35.8336113,128.4893014,2,AC완속,7kW,,
시설안전관리사업소,대구광역시 달서구 성서공단로 58시설안전관리사업소(대천동 891),35.8336113,128.4893014,3,AC완속,7kW,,
시설안전관리사업소,대구광역시 달서구 성서공단로 58시설안전관리사업소(대천동 891),35.8336113,128.4893014,4,AC완속,7kW,,
시지근린공원,대구광역시 수성구 달구벌대로637길 5시지근린공원(매호동 1330-2),35.8418455,128.7059303,1,AC완속,7kW,,
시지근린공원,대구광역시 수성구 달구벌대로637길 5시지근린공원(매호동 1330-2),35.8418455,128.7059303,2,AC완속,7kW,,
시지근린공원,대구광역시 수성구 달구벌대로637길 5시지근린공원(매호동 1330-2),35.8418455,128.7059303,3,AC완속,7kW,,
시지근린공원,대구광역시 수성구 달구벌대로637길 5시지근린공원(매호동 1330-2),35.8418455,128.7059303,4,AC완속,7kW,,
시청별관,대구광역시 북구 연암로 60시청별관(산격동 994-1),35.8909277,128.5973029,1,DC차데모+AC3상+DC콤보,50kW,,
시청별관,대구광역시 북구 연암로 60시청별관(산격동 994-1),35.8909277,128.5973029,2,AC완속,7kW,,
시청별관,대구광역시 북구 연암로 60시청별관(산격동 994-1),35.8909277,128.5973029,3,AC완속,7kW,,
시청별관,대구광역시 북구 연암로 60시청별관(산격동 994-1),35.8909277,128.5973029,4,AC완속,7kW,,
신암공원,대구광역시 동구 신암북로11길 6신암공원(676-1 금오아파트),35.8877121,128.6226366,1,DC차데모+AC3상+DC콤보,100kW,,
아양아트센터,대구광역시 동구 효동로2길 24아양아트센터(1084 아양아트센터),35.8797836,128.6519603,1,DC차데모+AC3상+DC콤보,100kW,,
아양아트센터,대구광역시 동구 효동로2길 24아양아트센터(1084 아양아트센터),35.8797836,128.6519603,2,DC차데모+AC3상+DC콤보,100kW,,
아이빌,대구광역시 북구 3공단로 240아이빌(노원동3가 20-12),35.888991,128.5799627,1,DC차데모+AC3상+DC콤보,50kW,,
앞산공영주차장,대구광역시 남구 큰골길 243앞산공원 공영주차장(봉덕동 1616),35.8316922,128.5887368,1,DC차데모+AC3상+DC콤보,100kW,,
어린이회관,대구광역시 수성구 동대구로 176어린이회관(황금동 626),35.8463964,128.6279595,1,AC완속,7kW,,
어린이회관,대구광역시 수성구 동대구로 176어린이회관(황금동 626),35.8463964,128.6279595,2,AC완속,7kW,,
어린이회관,대구광역시 수성구 동대구로 176어린이회관(황금동 626),35.8463964,128.6279595,3,AC완속,7kW,,
옥포읍 행정복지센터,"대구광역시 달성군 옥포읍 비슬로 2215옥포읍행정복지센터(옥포읍사무소, 옥포119지역대)",35.7895114,128.4637621,1,AC완속,7kW,,
올브랜 주차장,대구광역시 북구 유통단지로14길 22올브랜 주차장(산격동 1668),35.905483,128.6119927,1,AC완속,7kW,,
올브랜 주차장,대구광역시 북구 유통단지로14길 22올브랜 주차장(산격동 1668),35.905483,128.6119927,2,AC완속,7kW,,
올브랜 주차장,대구광역시 북구 유통단지로14길 22올브랜 주차장(산격동 1668),35.905483,128.6119927,3,AC완속,7kW,,
외환들공영주차장,대구광역시 수성구 미술관로 40-1외환들공영주차장(삼덕동 360-4),35.8285605,128.6737417,1,AC완속,7kW,,
외환들공영주차장,대구광역시 수성구 미술관로 40-1외환들공영주차장(삼덕동 360-4),35.8285605,128.6737417,2,AC완속,7kW,,
외환들공영주차장,대구광역시 수성구 미술관로 40-1외환들공영주차장(삼덕동 360-4),35.8285605,128.6737417,3,AC완속,7kW,,
용산1동 행정복지센터,대구광역시 달서구 용산로 212-7용산1동행정복지센터(934-6 용산1동행정복지센터),35.856588,128.5311531,1,AC완속,7kW,,
용산2동 행정복지센터,대구광역시 달서구 선원로 278용산2동 행정복지센터(용산동 499-7 용산2동행정복지센터),35.8584082,128.5229802,1,DC차데모+AC3상+DC콤보,50kW,,
월광수변공원주차장,대구광역시 달서구 월곡로 6월광수변공원주차장(도원동 932-5),35.7985061,128.5491585,1,DC차데모+AC3상+DC콤보,50kW,,
월성1동 행정복지센터,대구광역시 달서구 조암남로 97월성1동행정복지센터(1396-3 월성1동행정복지센터),35.8194962,128.5227868,1,AC완속,7kW,,
월성2동 행정복지센터,대구광역시 달서구 월성로 65월성2동행정복지센터(86-3 월성2동행정복지센터),35.8309599,128.5283025,1,AC완속,7kW,,
유니버시아드 레포츠센터,대구광역시 북구 호국로57길 6유니버시아드 레포츠센터(서변동 1724-1),35.9278602,128.5978739,1,DC차데모+AC3상+DC콤보,50kW,,
율하체육공원3주차장,대구광역시 동구 금호강변로 278율하체육공원3주차장(율하동 1626),35.8599123,128.6944799,1,DC차데모+AC3상+DC콤보,50kW,,
이곡1동행정복지센터,대구광역시 달서구 달구벌대로 1309이곡1동행정복지센터(672-2 이곡1동행정복지센터),35.8516032,128.5106482,1,DC차데모+AC3상+DC콤보,100kW,,
이천동 행정복지센터,대구광역시 남구 이천로28길 18이천동행정복지센터(이천동 주민센터),35.8536602,128.5993898,1,AC완속,7kW,,
중동 행정복지센터,대구광역시 수성구 수성로50길 38중동행정복지센터(중동 행정복지센터),35.8473556,128.6150551,1,AC완속,7kW,,
지산1동 행정복지센터,대구광역시 수성구 지범로21길 16지산1동행정복지센터(지산1동 행정복지센터),35.8261461,128.6334927,1,AC완속,7kW,,
지산근린공원 주차장,대구광역시 수성구 용학로 267지산근린공원 주차장(지산동 1274),35.8211647,128.6377482,1,DC차데모+AC3상+DC콤보,50kW,,
진천동 행정복지센터,대구광역시 달서구 진천로9길 33진천동행정복지센터(진천동 626-39),35.8121712,128.5228247,1,DC차데모+AC3상+DC콤보,50kW,,
차량등록사업소 서부분소,대구광역시 달서구 성서로 400차량등록사업소 서부분소(이곡동 1252-3),35.8523614,128.5083998,1,DC차데모+AC3상+DC콤보,50kW,,
차량등록사업소(시그넷),대구광역시 수성구 동원로 84차량등록사업소(1429-9 대구차량등록사업소),35.866715,128.639774,1,DC차데모+AC3상+DC콤보,50kW,,
첨단의료산업진흥재단,대구광역시 동구 첨복로 80첨단의료산업진흥재단(동내동 1115-1),35.8811367,128.7371389,1,DC차데모+AC3상+DC콤보,50kW,,
충전인프라 관제센터,대구광역시 서구 가르뱅이로10길 31대구 충전인프라 관제센터(상리동 2-1),35.8839918,128.5318192,1,DC차데모+AC3상+DC콤보,50kW,,
충전인프라 관제센터,대구광역시 서구 가르뱅이로10길 31대구 충전인프라 관제센터(상리동 2-1),35.8839918,128.5318192,2,AC완속,7kW,,
충전인프라 관제센터,대구광역시 서구 가르뱅이로10길 31대구 충전인프라 관제센터(상리동 2-1),35.8839918,128.5318192,3,AC완속,7kW,,
충전인프라 관제센터,대구광역시 서구 가르뱅이로10길 31대구 충전인프라 관제센터(상리동 2-1),35.8839918,128.5318192,4,AC완속,7kW,,
충혼탑 주차장,대구광역시 남구 앞산순환로 540충혼탑 주차장(대명동 산186),35.832502,128.5837289,1,DC차데모+AC3상+DC콤보,50kW,,
충혼탑 주차장,대구광역시 남구 앞산순환로 540충혼탑 주차장(대명동 산186),35.832502,128.5837289,2,AC완속,7kW,,
파계사 공영주차장,대구광역시 동구 파계로 686파계사 공영주차장(중대동 844-16),35.9904869,128.6365491,1,DC차데모+AC3상+DC콤보,50kW,,
파계사 공영주차장,대구광역시 동구 파계로 686파계사 공영주차장(중대동 844-16),35.9904869,128.6365491,2,AC완속,7kW,,
파동교네거리주차장,대구광역시 수성구 파동로 59파동교네거리주차장(파동 495),35.815776,128.6159719,1,DC차데모+AC3상+DC콤보,50kW,,
패션센터 주차장,대구광역시 북구 유통단지로14길 17패션센터 주차장(산격동 1670),35.9060323,128.6119388,1,DC차데모+AC3상+DC콤보,50kW,,
평리1동 행정복지센터,대구광역시 서구 문화로 280평리1동행정복지센터(평리1동 주민센터),35.8755458,128.5631704,1,AC완속,7kW,,
평리3동 행정복지센터,대구광역시 서구 문화로 261평리3동행정복지센터(평리3동 주민센터),35.8759232,128.5613114,1,AC완속,7kW,,
한국도로공사 칠곡영업소,대구광역시 북구 관음로 41한국도로공사 칠곡영업소(관음동 901-2),35.9343879,128.5391831,1,DC차데모+AC3상+DC콤보,50kW,,
한국산업단지 달성출장소,대구광역시 달성군 구지면 달성2차동1로 109한국산업단지 달성출장소(내리 840-3),35.6411855,128.417253,1,DC차데모+AC3상+DC콤보,50kW,,
해안동 행정복지센터,대구광역시 동구 방촌로29길 46해안동행정복지센터(방촌동 822-5),35.8822902,128.671527,1,DC차데모+AC3상+DC콤보,50kW,,
현풍읍 행정복지센터,대구광역시 달성군 현풍읍 비슬로134길 157현풍읍행정복지센터(352-2 현풍읍사무소),35.6974538,128.4476029,1,AC완속,7kW,,
환경공단안심하수처리장,대구광역시 동구 금호강변로 91대구환경공단 안심하수처리장(용계동 828-2),35.8679208,128.6812248,1,DC차데모+AC3상+DC콤보,50kW,,
환경공단안심하수처리장,대구광역시 동구 금호강변로 91대구환경공단 안심하수처리장(용계동 828-2),35.8679208,128.6812248,2,AC완속,7kW,,
환경공단안심하수처리장,대구광역시 동구 금호강변로 91대구환경공단 안심하수처리장(용계동 828-2),35.8679208,128.6812248,3,AC완속,7kW,,
대구시_KS택시주식회사,대구광역시 수성구 희망로 226KS택시주식회사,35.8468797,128.616436,1,DC차데모+AC3상+DC콤보,50kW,,
대구시_고산2동 행정복지센터,대구광역시 수성구 달구벌대로 3091고산2동 행정복지센터(고산2동 행정복지센터 고산2동 행정복지센터),35.8434132,128.6951866,1,DC차데모+AC3상+DC콤보,50kW,,
대구시_고성동 행정복지센터,대구광역시 북구 고성로31길 21,35.8816251,128.5838897,1,DC차데모+AC3상+DC콤보,50kW,,
대구시_공산동 행정복지센터,대구광역시 동구 팔공로91길 9대구시_공산동 행정복지센터(269-1 공산동주민센터),35.9402062,128.6442442,1,DC차데모+AC3상+DC콤보,100kW,,
대구시_남구청,대구광역시 남구 이천로 51,35.8458337,128.5977449,1,DC차데모+AC3상+DC콤보,50kW,,
대구시_남구청,대구광역시 남구 이천로 51,35.8458337,128.5977449,2,AC완속,7kW,,
대구시_남산2동 행정복지센터,대구광역시 중구 명륜로 27-1남산2동 행정복지센터,35.8637977,128.5898904,1,DC차데모+AC3상+DC콤보,50kW,,
대구시_남산3동 행정복지센터,대구광역시 중구 남산로4길 70,35.8598955,128.5855793,1,DC차데모+AC3상+DC콤보,50kW,,
대구시_내당4동,대구광역시 서구 서대구로3길 46대구시_내당4동,35.8589429,128.5519085,1,DC차데모+AC3상+DC콤보,100kW,,
대구시_대구 지식산업센터,대구광역시 북구 오봉로 164대구 지식산업센터,35.9025493,128.5792998,1,DC차데모+AC3상+DC콤보,50kW,,
대구시_대구도시철도공사,대구광역시 달서구 월배로 250대구도시철도공사,35.8192863,128.5408989,1,DC차데모+AC3상+DC콤보,50kW,,
대구시_대구시청,대구광역시 중구 공평로 88대구시청 지하주차장 내,35.871479,128.601482,1,DC차데모+AC3상+DC콤보,50kW,,
대구시_대구유통단지 전자관,대구광역시 북구 유통단지로 45대구유통단지 전자관,35.9071846,128.6070281,1,DC차데모+AC3상+DC콤보,50kW,,
대구시_대구유통단지 전자관,대구광역시 북구 유통단지로 45대구유통단지 전자관,35.9071846,128.6070281,2,AC완속,7kW,,
대구시_대구유통단지 전자관,대구광역시 북구 유통단지로 45대구유통단지 전자관,35.9071846,128.6070281,3,AC완속,7kW,,
대구시_대구유통단지 전자관,대구광역시 북구 유통단지로 45대구유통단지 전자관,35.9071846,128.6070281,4,AC완속,7kW,,
대구시_대구유통단지 전자관,대구광역시 북구 유통단지로 45대구유통단지 전자관,35.9071846,128.6070281,5,AC완속,7kW,,
대구시_대구은행 3공단영업부지점,대구광역시 북구 노원동로 2,35.8940841,128.5717372,1,DC차데모+AC3상+DC콤보,50kW,,
대구시_대구은행 본점,대구광역시 수성구 달구벌대로 2310대구은행 본점 지상주차장,35.8590849,128.6149899,1,DC차데모+AC3상+DC콤보,50kW,,
대구시_대구은행 신암동지점,대구광역시 동구 아양로 2,35.8808189,128.6146049,1,DC차데모+AC3상+DC콤보,50kW,,
대구시_대구은행 월배지점,대구광역시 달서구 월배로 109,35.8147523,128.5263034,1,DC차데모+AC3상+DC콤보,50kW,,
대구시_대구테크노파크 신기술산업지원센터,대구광역시 달서구 성서공단로 46-17대구테크노파크 신기술산업지원센터,35.8328668,128.4883171,1,DC차데모+AC3상+DC콤보,50kW,,
대구시_대명11동 행정복지센터,대구광역시 남구 관문시장4길 53대명11동 행정복지센터,35.8361893,128.5605606,1,DC차데모+AC3상+DC콤보,50kW,,
대구시_대명2동 행정복지센터,대구광역시 남구 명덕로32길 30,35.8551955,128.5865096,1,DC차데모+AC3상+DC콤보,50kW,,
대구시_대명3동 행정복지센터,대구광역시 남구 명덕로20길 115,35.8522924,128.5792372,1,DC차데모+AC3상+DC콤보,50kW,,
대구시_대명4동 행정복지센터,대구광역시 남구 두류공원로20길 19,35.8460094,128.5695338,1,DC차데모+AC3상+DC콤보,50kW,,
대구시_대봉2동 주민센터,대구광역시 중구 대봉로47길 31대봉2동 주민센터,35.8587826,128.5993698,1,DC차데모+AC3상+DC콤보,50kW,,
대구시_대신동 행정복지센터,대구광역시 중구 달구벌대로389길 50,35.8654979,128.576313,1,DC차데모+AC3상+DC콤보,50kW,,
대구시_대현동 행정복지센터,대구광역시 북구 대현남로5길 18대현동 행정복지센터,35.8822113,128.6058195,1,DC차데모+AC3상+DC콤보,50kW,,
대구시_도동 측백향커뮤니티센터,대구광역시 동구 도평로 245도동 측백향커뮤니티센터(측백향 커뮤니티센터),35.9189585,128.6621228,1,DC차데모+AC3상+DC콤보,100kW,,
대구시_도평동 공영주차장,대구광역시 동구 팔공로24길 71(도동 3-22),35.9093412,128.6447206,1,DC차데모+AC3상+DC콤보,50kW,,
대구시_동촌동 행정복지센터,대구광역시 동구 동촌로11길 5,35.8899751,128.6495657,1,DC차데모+AC3상+DC콤보,50kW,,
대구시_두류3동,대구광역시 달서구 야외음악당로39길 24대구시_두류3동,35.8537336,128.5553966,1,DC차데모+AC3상+DC콤보,100kW,,
대구시_명성푸르지오,대구광역시 북구 침산로 153,35.8890577,128.5904827,1,DC차데모+AC3상+DC콤보,50kW,,
대구시_명성푸르지오,대구광역시 북구 침산로 153,35.8890577,128.5904827,2,AC완속,7kW,,
대구시_명성푸르지오,대구광역시 북구 침산로 153,35.8890577,128.5904827,3,AC완속,7kW,,
대구시_무태조야동 행정복지센터,대구광역시 북구 호국로43길 20,35.9210883,128.5971665,1,DC차데모+AC3상+DC콤보,50kW,,
대구시_방촌동 행정복지센터,대구광역시 동구 동촌로48길 26,35.8801476,128.6653429,1,DC차데모+AC3상+DC콤보,50kW,,
대구시_범물1동,대구광역시 수성구 범안로 76대구시_범물1동,35.8180068,128.646179,1,DC차데모+AC3상+DC콤보,100kW,,
대구시_범어1동,대구광역시 수성구 범어천로 97대구시_범어1동,35.8556691,128.622111,1,DC차데모+AC3상+DC콤보,100kW,,
대구시_본리동 행정복지센터,대구광역시 달서구 당산로 37-14,35.8409724,128.5432185,1,DC차데모+AC3상+DC콤보,50kW,,
대구시_봉덕3동 행정복지센터,대구광역시 남구 중앙대로22길 100,35.8424277,128.5959261,1,DC차데모+AC3상+DC콤보,50kW,,
대구시_산격1동,대구광역시 북구 연암로36길 6대구시_산격1동,35.900159,128.5970809,1,DC차데모+AC3상+DC콤보,100kW,,
대구시_삼덕동,대구광역시 중구 달구벌대로447길 72-11대구시_삼덕동,35.865567,128.6089455,1,AC완속,7kW,,
대구시_상리공원,대구광역시 서구 평리로17길 45대구 서구 중리동 산 198-3 대구시_상리공원,35.8628522,128.5329853,1,DC차데모+AC3상+DC콤보,100kW,,
대구시_상호림공원,대구광역시 달서구 달서대로91길 115상호림공원,35.8384508,128.4791418,1,DC차데모+AC3상+DC콤보,50kW,,
대구시_서대구역(남측) 주차장,대구광역시 서구 와룡로 527서대구역 경부선(고속철도)(이현동 232-1),35.8681941,128.5382878,1,DC차데모+AC3상+DC콤보,50kW,,
대구시_서대구역(남측) 주차장,대구광역시 서구 와룡로 527서대구역 경부선(고속철도)(이현동 232-1),35.8681941,128.5382878,2,DC차데모+AC3상+DC콤보,50kW,,
대구시_서대구역(남측) 주차장,대구광역시 서구 와룡로 527서대구역 경부선(고속철도)(이현동 232-1),35.8681941,128.5382878,5,DC차데모+AC3상+DC콤보,50kW,,
대구시_성당두산위브,대구광역시 달서구 당산로 82,35.8444507,128.5458072,1,DC차데모+AC3상+DC콤보,50kW,,
대구시_성당두산위브,대구광역시 달서구 당산로 82,35.8444507,128.5458072,2,AC완속,7kW,,
대구시_성당두산위브,대구광역시 달서구 당산로 82,35.8444507,128.5458072,3,AC완속,7kW,,
대구시_송현2동 행정복지센터,대구광역시 달서구 월배로83길 120-14,35.8327133,128.5456211,1,DC차데모+AC3상+DC콤보,50kW,,
대구시_수성소방서,대구광역시 수성구 청호로 87실외(1259 수성소방서청사),,,1,DC차데모+AC3상+DC콤보,100kW,,
대구시_수성의료지구,대구광역시 수성구 알파시티1로 83전기차충전소(대흥동 903-1),35.8353269,128.6903668,1,DC차데모+AC3상+DC콤보,50kW,,
대구시_수성의료지구,대구광역시 수성구 알파시티1로 83전기차충전소(대흥동 903-1),35.8353269,128.6903668,2,DC차데모+AC3상+DC콤보,50kW,,
대구시_수성의료지구,대구광역시 수성구 알파시티1로 83전기차충전소(대흥동 903-1),35.8353269,128.6903668,4,DC차데모+AC3상+DC콤보,50kW,,
대구시_수성의료지구,대구광역시 수성구 알파시티1로 83전기차충전소(대흥동 903-1),35.8353269,128.6903668,5,AC완속,7kW,,
대구시_수성의료지구(대구도시공사),대구광역시 수성구 알파시티1로 194(대흥동 841-1),35.8373626,128.6819486,1,DC차데모+AC3상+DC콤보,50kW,,
대구시_수성의료지구(대구도시공사),대구광역시 수성구 알파시티1로 194(대흥동 841-1),35.8373626,128.6819486,2,DC차데모+AC3상+DC콤보,50kW,,
대구시_수성의료지구(대구도시공사),대구광역시 수성구 알파시티1로 194(대흥동 841-1),35.8373626,128.6819486,3,DC차데모+AC3상+DC콤보,50kW,,
대구시_신당동,대구광역시 달서구 선원로 60대구시_신당동,35.8587524,128.4987807,1,DC차데모+AC3상+DC콤보,100kW,,
대구시_신매공원,대구광역시 수성구 달구벌대로652길 65대구광역시 수성구 신매동 290-1,35.8328139,128.7098677,1,DC차데모+AC3상+DC콤보,50kW,,
대구시_신매공원,대구광역시 수성구 달구벌대로652길 65대구광역시 수성구 신매동 290-1,35.8328139,128.7098677,2,AC완속,7kW,,
대구시_신암1동 행정복지센터,대구광역시 동구 아양로7길 27대구시_신암1동 행정복지센터(722-293 신암1동행정복지센터),35.8842957,128.6163595,1,DC차데모+AC3상+DC콤보,100kW,,
대구시_신암2동 행정복지센터,대구광역시 동구 신성로 56,35.879941,128.6126548,1,DC차데모+AC3상+DC콤보,50kW,,
대구시_안심1동 행정복지센터,대구광역시 동구 율하동로25길 5,35.8706033,128.7015745,1,DC차데모+AC3상+DC콤보,50kW,,
대구시_안심4동 행정복지센터,대구광역시 동구 안심로49길 98안심4동 행정복지센터(14-1 안심4동주민센터),35.8702467,128.7110836,1,DC차데모+AC3상+DC콤보,50kW,,
대구시_옥포읍 행정복지센터,대구광역시 달성군 옥포읍 비슬로 2215,35.7893884,128.4637726,1,DC차데모+AC3상+DC콤보,50kW,,
대구시_운암지 공영주차장,대구광역시 북구 구암로 217운암지 공영주차장,35.931071,128.5630253,1,DC차데모+AC3상+DC콤보,50kW,,
대구시_운암지 공영주차장,대구광역시 북구 구암로 217운암지 공영주차장,35.931071,128.5630253,2,DC차데모+AC3상+DC콤보,50kW,,
대구시_월촌공원주차장,대구광역시 달서구 상인로 68-4월촌공원주차장,35.8128466,128.5491292,1,DC차데모+AC3상+DC콤보,50kW,,
대구시_월촌공원주차장,대구광역시 달서구 상인로 68-4월촌공원주차장,35.8128466,128.5491292,2,DC차데모+AC3상+DC콤보,50kW,,
대구시_유가읍 행정복지센터,대구광역시 달성군 유가읍 테크노상업로 95,35.6940288,128.4584036,1,DC차데모+AC3상+DC콤보,50kW,,
대구시_유가읍 행정복지센터,대구광역시 달성군 유가읍 테크노상업로 95,35.6940288,128.4584036,2,DC차데모+AC3상+DC콤보,50kW,,
대구시_유가읍 행정복지센터,대구광역시 달성군 유가읍 테크노상업로 95,35.6940288,128.4584036,3,AC완속,7kW,,
대구시_유가읍 행정복지센터,대구광역시 달성군 유가읍 테크노상업로 95,35.6940288,128.4584036,4,AC완속,7kW,,
대구시_유가읍 행정복지센터,대구광역시 달성군 유가읍 테크노상업로 95,35.6940288,128.4584036,5,AC완속,7kW,,
대구시_유천동 행정복지센터,대구광역시 달서구 조암로 175유천동행정복지센터(유천동 606),35.8174255,128.5141095,1,DC차데모+AC3상+DC콤보,50kW,,
대구시_장기공영주차장,대구광역시 달서구 장기로 277장기공영주차장,35.8432804,128.529941,1,DC차데모+AC3상+DC콤보,50kW,,
대구시_저소득층 밀집지구 지식산업센터,대구광역시 수성구 알파시티1로 160저소득층 밀집지구 지식산업센터,35.8357466,128.6824785,1,DC차데모+AC3상+DC콤보,50kW,,
대구시_중구청,대구광역시 중구 국채보상로139길 1,35.8694537,128.6060258,1,DC차데모+AC3상+DC콤보,50kW,,
대구시_지능형자동차부품진흥원,대구광역시 달성군 구지면 국가산단서로 201지능형자동차부품진흥원(창리 945),35.6481281,128.3985328,1,DC차데모+AC3상+DC콤보,50kW,,
대구시_지능형자동차부품진흥원,대구광역시 달성군 구지면 국가산단서로 201지능형자동차부품진흥원(창리 945),35.6481281,128.3985328,2,DC차데모+AC3상+DC콤보,50kW,,
대구시_지산2동,대구광역시 수성구 용학로33길 9대구시_지산2동,35.8232441,128.6282509,1,DC차데모+AC3상+DC콤보,100kW,,
대구시_지저동,대구광역시 동구 해동로3길 80대구시_지저동,35.8934469,128.6382095,1,DC차데모+AC3상+DC콤보,100kW,,
대구시_진천삼성래미안,대구광역시 달서구 상화로8길 23,35.8070225,128.5180704,1,DC차데모+AC3상+DC콤보,50kW,,
대구시_진천삼성래미안,대구광역시 달서구 상화로8길 23,35.8070225,128.5180704,2,AC완속,7kW,,
대구시_진천삼성래미안,대구광역시 달서구 상화로8길 23,35.8070225,128.5180704,3,AC완속,7kW,,
대구시_차량등록사업소,대구광역시 수성구 동원로 84,35.8668058,128.6396357,1,DC차데모+AC3상+DC콤보,50kW,,
대구시_칠성동,대구광역시 북구 칠성로19길 4대구시_칠성동,35.8788876,128.6001575,1,DC차데모+AC3상+DC콤보,100kW,,
대구시_침산푸르지오,대구광역시 북구 옥산로 103,35.8844426,128.5873129,1,DC차데모+AC3상+DC콤보,50kW,,
대구시_침산푸르지오,대구광역시 북구 옥산로 103,35.8844426,128.5873129,2,AC완속,7kW,,
대구시_침산푸르지오,대구광역시 북구 옥산로 103,35.8844426,128.5873129,3,AC완속,7kW,,
대구시_태전1동 행정복지센터,대구광역시 북구 태전로7길 10-24,35.9240909,128.5432495,1,DC차데모+AC3상+DC콤보,50kW,,
대구시_태전2동,대구광역시 북구 칠곡중앙대로52길 32대구시_태전2동,35.9214406,128.5487131,1,DC차데모+AC3상+DC콤보,100kW,,
대구시_태전공원,대구광역시 북구 영송로 70태전공원 실외(태전동 943),35.931491,128.5446241,1,DC차데모+AC3상+DC콤보,100kW,,
대구시_하빈면사무소,대구광역시 달성군 하빈면 하빈로84길 1,35.9013105,128.4460643,1,DC차데모+AC3상+DC콤보,50kW,,
대구시_한국도로공사(유천IC),대구광역시 달성군 화원읍 성천로 208한국도로공사(유천IC),35.8108345,128.5023669,1,DC차데모+AC3상+DC콤보,50kW,,
대구시_한국도로공사(유천IC),대구광역시 달성군 화원읍 성천로 208한국도로공사(유천IC),35.8108345,128.5023669,2,DC차데모+AC3상+DC콤보,50kW,,
대구시_황금1동 행정복지센터,대구광역시 수성구 청호로57길 10,35.8440863,128.6382529,1,DC차데모+AC3상+DC콤보,50kW,,
대구시_효목1동 행정복지센터,대구광역시 동구 화랑로41길 46,35.8817335,128.6449448,1,DC차데모+AC3상+DC콤보,50kW,,
대구시_효목2동,대구광역시 동구 화랑로25길 45대구시_효목2동,35.8781338,128.6413536,1,DC차데모+AC3상+DC콤보,100kW,,